[
    {
        "address": "au milieu du boulevard des Nations \u00a0\u00e0 Vandoeuvre dans le prolongement de l\u2019arr\u00eat de bus Nations devant le centre commercial",
        "lat": 48.662356,
        "lon": 6.173442,
        "capacity": 15,
        "bikes": 7,
        "stands": 8,
        "status": "OPEN"
    },
    {
        "address": "Place du V\u00e9lodrome",
        "lat": 48.666721193896,
        "lon": 6.16661978303466,
        "capacity": 24,
        "bikes": 12,
        "stands": 12,
        "status": "OPEN"
    },
    {
        "address": "Angle rue Pierre FOURIER et rue des Dominicains",
        "lat": 48.6924654452072,
        "lon": 6.18340055389445,
        "capacity": 25,
        "bikes": 6,
        "stands": 19,
        "status": "OPEN"
    },
    {
        "address": "9 av Paul D\u00e9roul\u00e8de",
        "lat": 48.684954,
        "lon": 6.154908,
        "capacity": 15,
        "bikes": 0,
        "stands": 15,
        "status": "OPEN"
    },
    {
        "address": "2 rue Emilie du Ch\u00e2telet",
        "lat": 48.695420147586,
        "lon": 6.19522861327582,
        "capacity": 16,
        "bikes": 9,
        "stands": 7,
        "status": "OPEN"
    },
    {
        "address": "Angle rue Pierre CHALNOT et rue de la Commanderie",
        "lat": 48.6869197241039,
        "lon": 6.17234789239391,
        "capacity": 18,
        "bikes": 4,
        "stands": 14,
        "status": "OPEN"
    },
    {
        "address": "Angle rue Henri BAZIN et quai Sainte-Catherine",
        "lat": 48.6954870039528,
        "lon": 6.1906794896667,
        "capacity": 16,
        "bikes": 13,
        "stands": 3,
        "status": "OPEN"
    },
    {
        "address": "Boulevard d'Haussonville",
        "lat": 48.67227619793021,
        "lon": 6.165710709115886,
        "capacity": 15,
        "bikes": 6,
        "stands": 9,
        "status": "OPEN"
    },
    {
        "address": "71 rue Saint-Nicolas",
        "lat": 48.688015,
        "lon": 6.187451,
        "capacity": 16,
        "bikes": 5,
        "stands": 11,
        "status": "OPEN"
    },
    {
        "address": "Angle rue Saint-Dizier - Rue du Dr SCHMITT",
        "lat": 48.6891733257851,
        "lon": 6.18390463043762,
        "capacity": 18,
        "bikes": 11,
        "stands": 7,
        "status": "OPEN"
    },
    {
        "address": "Angle rue Saint-L\u00e9on - Esplanade Saint-L\u00e9on",
        "lat": 48.689560111075,
        "lon": 6.17251545229862,
        "capacity": 20,
        "bikes": 8,
        "stands": 12,
        "status": "OPEN"
    },
    {
        "address": "Angle rue Saint-Thiebaut et rue du Grand Rabbin HAGUENAUER",
        "lat": 48.6886141256403,
        "lon": 6.17950010441818,
        "capacity": 22,
        "bikes": 4,
        "stands": 18,
        "status": "OPEN"
    },
    {
        "address": "Angle rue Molitor et rue Foller",
        "lat": 48.6858574026886,
        "lon": 6.19290171469907,
        "capacity": 16,
        "bikes": 5,
        "stands": 11,
        "status": "OPEN"
    },
    {
        "address": "45 avenue du Mar\u00e9chal de Lattre de Tassigny",
        "lat": 48.6833502130976,
        "lon": 6.19029660801914,
        "capacity": 20,
        "bikes": 10,
        "stands": 10,
        "status": "OPEN"
    },
    {
        "address": "Rue Drouin - Face au n\u00b02",
        "lat": 48.6921301,
        "lon": 6.1872695,
        "capacity": 16,
        "bikes": 4,
        "stands": 12,
        "status": "OPEN"
    },
    {
        "address": "Boulevard Foch",
        "lat": 48.6894760345252,
        "lon": 6.17650546239553,
        "capacity": 28,
        "bikes": 17,
        "stands": 10,
        "status": "OPEN"
    },
    {
        "address": "Place Godefroy de Bouillon",
        "lat": 48.6928180794454,
        "lon": 6.16860978784457,
        "capacity": 19,
        "bikes": 8,
        "stands": 11,
        "status": "OPEN"
    },
    {
        "address": "Angle rue du Haut Bourgeois et place des Bourgets",
        "lat": 48.6984724451821,
        "lon": 6.17798553705909,
        "capacity": 20,
        "bikes": 13,
        "stands": 7,
        "status": "OPEN"
    },
    {
        "address": "Place Barrois",
        "lat": 48.69950232851108,
        "lon": 6.204735639873545,
        "capacity": 17,
        "bikes": 3,
        "stands": 14,
        "status": "OPEN"
    },
    {
        "address": "Square Waldstetten  en face du 6 rue Maurice Barr\u00e8s MALZEVILLE",
        "lat": 48.707187,
        "lon": 6.185524,
        "capacity": 15,
        "bikes": 4,
        "stands": 11,
        "status": "OPEN"
    },
    {
        "address": "Rue Stanislas - Face au n\u00b068",
        "lat": 48.6919579483934,
        "lon": 6.17851021950761,
        "capacity": 28,
        "bikes": 19,
        "stands": 9,
        "status": "OPEN"
    },
    {
        "address": "Rue des 3 Epis Baudricourt",
        "lat": 48.675248491826174,
        "lon": 6.162844844269929,
        "capacity": 15,
        "bikes": 5,
        "stands": 10,
        "status": "OPEN"
    },
    {
        "address": "rue du faubourg des 3 Maisons - Angle boulevard Charles V",
        "lat": 48.701365,
        "lon": 6.176824,
        "capacity": 23,
        "bikes": 11,
        "stands": 12,
        "status": "OPEN"
    },
    {
        "address": "Promenade des Canaux",
        "lat": 48.6927939742599,
        "lon": 6.19628435757015,
        "capacity": 16,
        "bikes": 0,
        "stands": 16,
        "status": "OPEN"
    },
    {
        "address": "Place du Colonel Fabien",
        "lat": 48.6952351,
        "lon": 6.1798109,
        "capacity": 20,
        "bikes": 8,
        "stands": 12,
        "status": "OPEN"
    },
    {
        "address": "en face du 1 Boulevard Charlemagne Nancy",
        "lat": 48.685497,
        "lon": 6.161015,
        "capacity": 15,
        "bikes": 4,
        "stands": 11,
        "status": "OPEN"
    },
    {
        "address": "Angle avenue du G\u00e9n\u00e9ral Leclerc et rue du Mar\u00e9chal De Lattre de Tassigny",
        "lat": 48.684781,
        "lon": 6.187631,
        "capacity": 15,
        "bikes": 8,
        "stands": 7,
        "status": "OPEN"
    },
    {
        "address": "en face du 119 rue du Sergent Blandan",
        "lat": 48.674665,
        "lon": 6.170655,
        "capacity": 15,
        "bikes": 8,
        "stands": 7,
        "status": "OPEN"
    },
    {
        "address": "Angle rue Saint-Michel et cours L\u00e9opold",
        "lat": 48.6956140662607,
        "lon": 6.17676840786255,
        "capacity": 18,
        "bikes": 9,
        "stands": 9,
        "status": "OPEN"
    },
    {
        "address": "Rue Mazagran",
        "lat": 48.69037,
        "lon": 6.175677,
        "capacity": 30,
        "bikes": 15,
        "stands": 15,
        "status": "OPEN"
    },
    {
        "address": "Angle Place de la Carri\u00e8re et rue des Mar\u00e9chaux",
        "lat": 48.6945981637388,
        "lon": 6.18229408637817,
        "capacity": 16,
        "bikes": 5,
        "stands": 11,
        "status": "OPEN"
    },
    {
        "address": "Place de la Commanderie - Face au n\u00b013",
        "lat": 48.6859179816784,
        "lon": 6.1674218161464,
        "capacity": 18,
        "bikes": 7,
        "stands": 11,
        "status": "OPEN"
    },
    {
        "address": "27 rue Baron Louis - Angle quai Claude le Lorrain",
        "lat": 48.6957176856775,
        "lon": 6.17133838702303,
        "capacity": 15,
        "bikes": 5,
        "stands": 10,
        "status": "OPEN"
    }
]