[
    {
        "id": 30,
        "capacity": 15,
        "lat": 48.662356,
        "lon": 6.173442,
        "name": "00030 - NATIONS (CB)",
        "address": "au milieu du boulevard des Nations \u00a0\u00e0 Vandoeuvre dans le prolongement de l\u2019arr\u00eat de bus Nations devant le centre commercial",
        "status": "OPEN"
    },
    {
        "id": 29,
        "capacity": 24,
        "lat": 48.666721193896,
        "lon": 6.16661978303466,
        "name": "00029 - VELODROME (CB)",
        "address": "Place du V\u00e9lodrome",
        "status": "OPEN"
    },
    {
        "id": 1,
        "capacity": 25,
        "lat": 48.6924654452072,
        "lon": 6.18340055389445,
        "name": "00001 - DOMINICAINS - FOURIER (CB)",
        "address": "Angle rue Pierre FOURIER et rue des Dominicains",
        "status": "OPEN"
    },
    {
        "id": 33,
        "capacity": 15,
        "lat": 48.684954,
        "lon": 6.154908,
        "name": "00033 - LAXOU MAIRIE (CB)",
        "address": "9 av Paul D\u00e9roul\u00e8de",
        "status": "OPEN"
    },
    {
        "id": 6,
        "capacity": 16,
        "lat": 48.695420147586,
        "lon": 6.19522861327582,
        "name": "00006 - LES 2 RIVES (CB)",
        "address": "2 rue Emilie du Ch\u00e2telet",
        "status": "OPEN"
    },
    {
        "id": 19,
        "capacity": 18,
        "lat": 48.6869197241039,
        "lon": 6.17234789239391,
        "name": "00019 - COMMANDERIE - CHALNOT",
        "address": "Angle rue Pierre CHALNOT et rue de la Commanderie",
        "status": "OPEN"
    },
    {
        "id": 15,
        "capacity": 16,
        "lat": 48.6954870039528,
        "lon": 6.1906794896667,
        "name": "00015 - PORT STE CATHERINE",
        "address": "Angle rue Henri BAZIN et quai Sainte-Catherine",
        "status": "OPEN"
    },
    {
        "id": 28,
        "capacity": 15,
        "lat": 48.67227619793021,
        "lon": 6.165710709115886,
        "name": "00028 - MARCH\u00c9 D'HAUSSONVILLE",
        "address": "Boulevard d'Haussonville",
        "status": "OPEN"
    },
    {
        "id": 13,
        "capacity": 16,
        "lat": 48.688015,
        "lon": 6.187451,
        "name": "00013 - SAINT NICOLAS - CHARLES III",
        "address": "71 rue Saint-Nicolas",
        "status": "OPEN"
    },
    {
        "id": 4,
        "capacity": 18,
        "lat": 48.6891733257851,
        "lon": 6.18390463043762,
        "name": "00004 - MARCHE CENTRAL (CB)",
        "address": "Angle rue Saint-Dizier - Rue du Dr SCHMITT",
        "status": "OPEN"
    },
    {
        "id": 18,
        "capacity": 20,
        "lat": 48.689560111075,
        "lon": 6.17251545229862,
        "name": "00018 - GARE SAINT LEON (CB)",
        "address": "Angle rue Saint-L\u00e9on - Esplanade Saint-L\u00e9on",
        "status": "OPEN"
    },
    {
        "id": 12,
        "capacity": 22,
        "lat": 48.6886141256403,
        "lon": 6.17950010441818,
        "name": "00012 - ST SEBASTIEN - ST THIEBAUT (CB)",
        "address": "Angle rue Saint-Thiebaut et rue du Grand Rabbin HAGUENAUER",
        "status": "OPEN"
    },
    {
        "id": 22,
        "capacity": 16,
        "lat": 48.6858574026886,
        "lon": 6.19290171469907,
        "name": "00022 - HOPITAL ST JULIEN",
        "address": "Angle rue Molitor et rue Foller",
        "status": "OPEN"
    },
    {
        "id": 21,
        "capacity": 20,
        "lat": 48.6833502130976,
        "lon": 6.19029660801914,
        "name": "00021 - HOPITAL CENTRAL (CB)",
        "address": "45 avenue du Mar\u00e9chal de Lattre de Tassigny",
        "status": "OPEN"
    },
    {
        "id": 5,
        "capacity": 16,
        "lat": 48.6921301,
        "lon": 6.1872695,
        "name": "00005 - PLACE COLONEL DRIANT (CB)",
        "address": "Rue Drouin - Face au n\u00b02",
        "status": "OPEN"
    },
    {
        "id": 11,
        "capacity": 28,
        "lat": 48.6894760345252,
        "lon": 6.17650546239553,
        "name": "00011 - MAZAGRAN - FOCH (CB)",
        "address": "Boulevard Foch",
        "status": "OPEN"
    },
    {
        "id": 14,
        "capacity": 19,
        "lat": 48.6928180794454,
        "lon": 6.16860978784457,
        "name": "00014 - FAC DE LETTRES (CB)",
        "address": "Place Godefroy de Bouillon",
        "status": "OPEN"
    },
    {
        "id": 16,
        "capacity": 20,
        "lat": 48.6984724451821,
        "lon": 6.17798553705909,
        "name": "00016 - PORTE DE LA CRAFFE (CB)",
        "address": "Angle rue du Haut Bourgeois et place des Bourgets",
        "status": "OPEN"
    },
    {
        "id": 9,
        "capacity": 17,
        "lat": 48.69950232851108,
        "lon": 6.204735639873545,
        "name": "00009 - PLACE BARROIS (CB)",
        "address": "Place Barrois",
        "status": "OPEN"
    },
    {
        "id": 34,
        "capacity": 15,
        "lat": 48.707187,
        "lon": 6.185524,
        "name": "00034 - MALZEVILLE (CB)",
        "address": "Square Waldstetten  en face du 6 rue Maurice Barr\u00e8s MALZEVILLE",
        "status": "OPEN"
    },
    {
        "id": 3,
        "capacity": 28,
        "lat": 48.6919579483934,
        "lon": 6.17851021950761,
        "name": "00003 - PLACE DE DOMBASLE (CB)",
        "address": "Rue Stanislas - Face au n\u00b068",
        "status": "OPEN"
    },
    {
        "id": 26,
        "capacity": 15,
        "lat": 48.675248491826174,
        "lon": 6.162844844269929,
        "name": "00026 - BAUDRICOURT HAUSSONVILLE",
        "address": "Rue des 3 Epis Baudricourt",
        "status": "OPEN"
    },
    {
        "id": 24,
        "capacity": 23,
        "lat": 48.701365,
        "lon": 6.176824,
        "name": "00024 - 3 MAISONS - CHARLES V (CB)",
        "address": "rue du faubourg des 3 Maisons - Angle boulevard Charles V",
        "status": "OPEN"
    },
    {
        "id": 23,
        "capacity": 16,
        "lat": 48.6927939742599,
        "lon": 6.19628435757015,
        "name": "00023 - PROMENADE DES CANAUX",
        "address": "Promenade des Canaux",
        "status": "OPEN"
    },
    {
        "id": 7,
        "capacity": 20,
        "lat": 48.6952351,
        "lon": 6.1798109,
        "name": "00007 - PLACE ST EPVRE  (CB)",
        "address": "Place du Colonel Fabien",
        "status": "OPEN"
    },
    {
        "id": 32,
        "capacity": 15,
        "lat": 48.685497,
        "lon": 6.161015,
        "name": "00032 - MEDREVILLE (CB)",
        "address": "en face du 1 Boulevard Charlemagne Nancy",
        "status": "OPEN"
    },
    {
        "id": 20,
        "capacity": 15,
        "lat": 48.684781,
        "lon": 6.187631,
        "name": "00020 - PLACE DES VOSGES",
        "address": "Angle avenue du G\u00e9n\u00e9ral Leclerc et rue du Mar\u00e9chal De Lattre de Tassigny",
        "status": "OPEN"
    },
    {
        "id": 31,
        "capacity": 15,
        "lat": 48.674665,
        "lon": 6.170655,
        "name": "00031 - ARTEM (CB)",
        "address": "en face du 119 rue du Sergent Blandan",
        "status": "OPEN"
    },
    {
        "id": 8,
        "capacity": 18,
        "lat": 48.6956140662607,
        "lon": 6.17676840786255,
        "name": "00008 - COURS LEOPOLD - SAINT MICHEL (CB)",
        "address": "Angle rue Saint-Michel et cours L\u00e9opold",
        "status": "OPEN"
    },
    {
        "id": 10,
        "capacity": 30,
        "lat": 48.69037,
        "lon": 6.175677,
        "name": "00010 - GARE THIERS (CB)",
        "address": "Rue Mazagran",
        "status": "OPEN"
    },
    {
        "id": 2,
        "capacity": 16,
        "lat": 48.6945981637388,
        "lon": 6.18229408637817,
        "name": "00002 - PLACE DE LA CARRIERE (CB)",
        "address": "Angle Place de la Carri\u00e8re et rue des Mar\u00e9chaux",
        "status": "OPEN"
    },
    {
        "id": 25,
        "capacity": 18,
        "lat": 48.6859179816784,
        "lon": 6.1674218161464,
        "name": "00025 - PLACE COMMANDERIE",
        "address": "Place de la Commanderie - Face au n\u00b013",
        "status": "OPEN"
    },
    {
        "id": 17,
        "capacity": 15,
        "lat": 48.6957176856775,
        "lon": 6.17133838702303,
        "name": "00017 - CONSERVATOIRE - MANUFACTURE",
        "address": "27 rue Baron Louis - Angle quai Claude le Lorrain",
        "status": "OPEN"
    }
]